header: 
  seq: 3462
  stamp: 
    secs: 1536681209
    nsecs: 534508672
  frame_id: "map"
child_frame_id: "base_link"
pose: 
  pose: 
    position: 
      x: -0.0150992136751
      y: 0.0111187945655
      z: 0.112
    orientation: 
      x: 0.00697496658304
      y: -0.0156310988426
      z: -0.0094052378326
      w: -0.999809310543
  covariance: [1.0, 0.0, 0.0, 0.0, 0.0, 0.0, 0.0, 1.0, 0.0, 0.0, 0.0, 0.0, 0.0, 0.0, 1.0, 0.0, 0.0, 0.0, 0.0, 0.0, 0.0, 99999.0, 0.0, 0.0, 0.0, 0.0, 0.0, 0.0, 99999.0, 0.0, 0.0, 0.0, 0.0, 0.0, 0.0, 99999.0]
twist: 
  twist: 
    linear: 
      x: -0.04
      y: 0.0
      z: -0.06
    angular: 
      x: 0.0
      y: 0.0
      z: 0.0
  covariance: [-1.0, 0.0, 0.0, 0.0, 0.0, 0.0, 0.0, 0.0, 0.0, 0.0, 0.0, 0.0, 0.0, 0.0, 0.0, 0.0, 0.0, 0.0, 0.0, 0.0, 0.0, 0.0, 0.0, 0.0, 0.0, 0.0, 0.0, 0.0, 0.0, 0.0, 0.0, 0.0, 0.0, 0.0, 0.0, 0.0]
---
header: 
  seq: 3463
  stamp: 
    secs: 1536681209
    nsecs: 578508672
  frame_id: "map"
child_frame_id: "base_link"
pose: 
  pose: 
    position: 
      x: -0.0150992136777
      y: 0.0111187948564
      z: 0.11
    orientation: 
      x: 0.00695217402834
      y: -0.0156056991101
      z: -0.00947128194422
      w: -0.999809184103
  covariance: [1.0, 0.0, 0.0, 0.0, 0.0, 0.0, 0.0, 1.0, 0.0, 0.0, 0.0, 0.0, 0.0, 0.0, 1.0, 0.0, 0.0, 0.0, 0.0, 0.0, 0.0, 99999.0, 0.0, 0.0, 0.0, 0.0, 0.0, 0.0, 99999.0, 0.0, 0.0, 0.0, 0.0, 0.0, 0.0, 99999.0]
twist: 
  twist: 
    linear: 
      x: -0.04
      y: 0.0
      z: -0.06
    angular: 
      x: 0.0
      y: 0.0
      z: 0.0
  covariance: [-1.0, 0.0, 0.0, 0.0, 0.0, 0.0, 0.0, 0.0, 0.0, 0.0, 0.0, 0.0, 0.0, 0.0, 0.0, 0.0, 0.0, 0.0, 0.0, 0.0, 0.0, 0.0, 0.0, 0.0, 0.0, 0.0, 0.0, 0.0, 0.0, 0.0, 0.0, 0.0, 0.0, 0.0, 0.0, 0.0]
---
header: 
  seq: 3464
  stamp: 
    secs: 1536681209
    nsecs: 616508672
  frame_id: "map"
child_frame_id: "base_link"
pose: 
  pose: 
    position: 
      x: -0.0150992136214
      y: 0.0111187946803
      z: 0.109
    orientation: 
      x: 0.00689036830918
      y: -0.0156831360418
      z: -0.00948771921514
      w: -0.999808256872
  covariance: [1.0, 0.0, 0.0, 0.0, 0.0, 0.0, 0.0, 1.0, 0.0, 0.0, 0.0, 0.0, 0.0, 0.0, 1.0, 0.0, 0.0, 0.0, 0.0, 0.0, 0.0, 99999.0, 0.0, 0.0, 0.0, 0.0, 0.0, 0.0, 99999.0, 0.0, 0.0, 0.0, 0.0, 0.0, 0.0, 99999.0]
twist: 
  twist: 
    linear: 
      x: -0.04
      y: 0.0
      z: -0.06
    angular: 
      x: 0.0
      y: 0.0
      z: 0.0
  covariance: [-1.0, 0.0, 0.0, 0.0, 0.0, 0.0, 0.0, 0.0, 0.0, 0.0, 0.0, 0.0, 0.0, 0.0, 0.0, 0.0, 0.0, 0.0, 0.0, 0.0, 0.0, 0.0, 0.0, 0.0, 0.0, 0.0, 0.0, 0.0, 0.0, 0.0, 0.0, 0.0, 0.0, 0.0, 0.0, 0.0]
---
header: 
  seq: 3465
  stamp: 
    secs: 1536681209
    nsecs: 652889792
  frame_id: "map"
child_frame_id: "base_link"
pose: 
  pose: 
    position: 
      x: -0.0150992136472
      y: 0.011118794911
      z: 0.107
    orientation: 
      x: 0.00682892149677
      y: -0.0157029180602
      z: -0.00950171196884
      w: -0.999808256872
  covariance: [1.0, 0.0, 0.0, 0.0, 0.0, 0.0, 0.0, 1.0, 0.0, 0.0, 0.0, 0.0, 0.0, 0.0, 1.0, 0.0, 0.0, 0.0, 0.0, 0.0, 0.0, 99999.0, 0.0, 0.0, 0.0, 0.0, 0.0, 0.0, 99999.0, 0.0, 0.0, 0.0, 0.0, 0.0, 0.0, 99999.0]
twist: 
  twist: 
    linear: 
      x: -0.04
      y: 0.0
      z: -0.06
    angular: 
      x: 0.0
      y: 0.0
      z: 0.0
  covariance: [-1.0, 0.0, 0.0, 0.0, 0.0, 0.0, 0.0, 0.0, 0.0, 0.0, 0.0, 0.0, 0.0, 0.0, 0.0, 0.0, 0.0, 0.0, 0.0, 0.0, 0.0, 0.0, 0.0, 0.0, 0.0, 0.0, 0.0, 0.0, 0.0, 0.0, 0.0, 0.0, 0.0, 0.0, 0.0, 0.0]
---
header: 
  seq: 3466
  stamp: 
    secs: 1536681209
    nsecs: 694889792
  frame_id: "map"
child_frame_id: "base_link"
pose: 
  pose: 
    position: 
      x: -0.0150992137649
      y: 0.0111187945842
      z: 0.105
    orientation: 
      x: 0.0068152214661
      y: -0.0157205535529
      z: -0.00952198460298
      w: -0.99980787755
  covariance: [1.0, 0.0, 0.0, 0.0, 0.0, 0.0, 0.0, 1.0, 0.0, 0.0, 0.0, 0.0, 0.0, 0.0, 1.0, 0.0, 0.0, 0.0, 0.0, 0.0, 0.0, 99999.0, 0.0, 0.0, 0.0, 0.0, 0.0, 0.0, 99999.0, 0.0, 0.0, 0.0, 0.0, 0.0, 0.0, 99999.0]
twist: 
  twist: 
    linear: 
      x: -0.04
      y: 0.0
      z: -0.06
    angular: 
      x: 0.0
      y: 0.0
      z: 0.0
  covariance: [-1.0, 0.0, 0.0, 0.0, 0.0, 0.0, 0.0, 0.0, 0.0, 0.0, 0.0, 0.0, 0.0, 0.0, 0.0, 0.0, 0.0, 0.0, 0.0, 0.0, 0.0, 0.0, 0.0, 0.0, 0.0, 0.0, 0.0, 0.0, 0.0, 0.0, 0.0, 0.0, 0.0, 0.0, 0.0, 0.0]
---
header: 
  seq: 3467
  stamp: 
    secs: 1536681209
    nsecs: 728889792
  frame_id: "map"
child_frame_id: "base_link"
pose: 
  pose: 
    position: 
      x: -0.0150992137086
      y: 0.0111187944081
      z: 0.104
    orientation: 
      x: 0.00688042889692
      y: -0.0157067679114
      z: -0.00953302707728
      w: -0.999807540375
  covariance: [1.0, 0.0, 0.0, 0.0, 0.0, 0.0, 0.0, 1.0, 0.0, 0.0, 0.0, 0.0, 0.0, 0.0, 1.0, 0.0, 0.0, 0.0, 0.0, 0.0, 0.0, 99999.0, 0.0, 0.0, 0.0, 0.0, 0.0, 0.0, 99999.0, 0.0, 0.0, 0.0, 0.0, 0.0, 0.0, 99999.0]
twist: 
  twist: 
    linear: 
      x: -0.04
      y: 0.0
      z: -0.06
    angular: 
      x: 0.0
      y: 0.0
      z: 0.0
  covariance: [-1.0, 0.0, 0.0, 0.0, 0.0, 0.0, 0.0, 0.0, 0.0, 0.0, 0.0, 0.0, 0.0, 0.0, 0.0, 0.0, 0.0, 0.0, 0.0, 0.0, 0.0, 0.0, 0.0, 0.0, 0.0, 0.0, 0.0, 0.0, 0.0, 0.0, 0.0, 0.0, 0.0, 0.0, 0.0, 0.0]
---
header: 
  seq: 3468
  stamp: 
    secs: 1536681209
    nsecs: 770271424
  frame_id: "map"
child_frame_id: "base_link"
pose: 
  pose: 
    position: 
      x: -0.0150992137344
      y: 0.0111187946388
      z: 0.102
    orientation: 
      x: 0.0068434634766
      y: -0.0156708587965
      z: -0.00954322661462
      w: -0.999808299019
  covariance: [1.0, 0.0, 0.0, 0.0, 0.0, 0.0, 0.0, 1.0, 0.0, 0.0, 0.0, 0.0, 0.0, 0.0, 1.0, 0.0, 0.0, 0.0, 0.0, 0.0, 0.0, 99999.0, 0.0, 0.0, 0.0, 0.0, 0.0, 0.0, 99999.0, 0.0, 0.0, 0.0, 0.0, 0.0, 0.0, 99999.0]
twist: 
  twist: 
    linear: 
      x: -0.04
      y: 0.0
      z: -0.05
    angular: 
      x: 0.0
      y: 0.0
      z: 0.0
  covariance: [-1.0, 0.0, 0.0, 0.0, 0.0, 0.0, 0.0, 0.0, 0.0, 0.0, 0.0, 0.0, 0.0, 0.0, 0.0, 0.0, 0.0, 0.0, 0.0, 0.0, 0.0, 0.0, 0.0, 0.0, 0.0, 0.0, 0.0, 0.0, 0.0, 0.0, 0.0, 0.0, 0.0, 0.0, 0.0, 0.0]
---
header: 
  seq: 3469
  stamp: 
    secs: 1536681209
    nsecs: 804271424
  frame_id: "map"
child_frame_id: "base_link"
pose: 
  pose: 
    position: 
      x: -0.0150992136807
      y: 0.0111187947537
      z: 0.099
    orientation: 
      x: 0.0068518003208
      y: -0.0157652812373
      z: -0.00953745249638
      w: -0.999806823879
  covariance: [1.0, 0.0, 0.0, 0.0, 0.0, 0.0, 0.0, 1.0, 0.0, 0.0, 0.0, 0.0, 0.0, 0.0, 1.0, 0.0, 0.0, 0.0, 0.0, 0.0, 0.0, 99999.0, 0.0, 0.0, 0.0, 0.0, 0.0, 0.0, 99999.0, 0.0, 0.0, 0.0, 0.0, 0.0, 0.0, 99999.0]
twist: 
  twist: 
    linear: 
      x: -0.04
      y: 0.0
      z: -0.05
    angular: 
      x: 0.0
      y: 0.0
      z: 0.0
  covariance: [-1.0, 0.0, 0.0, 0.0, 0.0, 0.0, 0.0, 0.0, 0.0, 0.0, 0.0, 0.0, 0.0, 0.0, 0.0, 0.0, 0.0, 0.0, 0.0, 0.0, 0.0, 0.0, 0.0, 0.0, 0.0, 0.0, 0.0, 0.0, 0.0, 0.0, 0.0, 0.0, 0.0, 0.0, 0.0, 0.0]
---
header: 
  seq: 3470
  stamp: 
    secs: 1536681209
    nsecs: 847654848
  frame_id: "map"
child_frame_id: "base_link"
pose: 
  pose: 
    position: 
      x: -0.0150992136244
      y: 0.0111187945775
      z: 0.098
    orientation: 
      x: 0.00696773708143
      y: -0.0157612627987
      z: -0.00951903432358
      w: -0.99980627597
  covariance: [1.0, 0.0, 0.0, 0.0, 0.0, 0.0, 0.0, 1.0, 0.0, 0.0, 0.0, 0.0, 0.0, 0.0, 1.0, 0.0, 0.0, 0.0, 0.0, 0.0, 0.0, 99999.0, 0.0, 0.0, 0.0, 0.0, 0.0, 0.0, 99999.0, 0.0, 0.0, 0.0, 0.0, 0.0, 0.0, 99999.0]
twist: 
  twist: 
    linear: 
      x: -0.04
      y: 0.0
      z: -0.05
    angular: 
      x: 0.0
      y: 0.0
      z: 0.0
  covariance: [-1.0, 0.0, 0.0, 0.0, 0.0, 0.0, 0.0, 0.0, 0.0, 0.0, 0.0, 0.0, 0.0, 0.0, 0.0, 0.0, 0.0, 0.0, 0.0, 0.0, 0.0, 0.0, 0.0, 0.0, 0.0, 0.0, 0.0, 0.0, 0.0, 0.0, 0.0, 0.0, 0.0, 0.0, 0.0, 0.0]
---
header: 
  seq: 3471
  stamp: 
    secs: 1536681209
    nsecs: 886654848
  frame_id: "map"
child_frame_id: "base_link"
pose: 
  pose: 
    position: 
      x: -0.0226488204667
      y: 0.0111187952092
      z: 0.096
    orientation: 
      x: 0.0069622369177
      y: -0.0157475281945
      z: -0.00946436986106
      w: -0.999806992466
  covariance: [1.0, 0.0, 0.0, 0.0, 0.0, 0.0, 0.0, 1.0, 0.0, 0.0, 0.0, 0.0, 0.0, 0.0, 1.0, 0.0, 0.0, 0.0, 0.0, 0.0, 0.0, 99999.0, 0.0, 0.0, 0.0, 0.0, 0.0, 0.0, 99999.0, 0.0, 0.0, 0.0, 0.0, 0.0, 0.0, 99999.0]
twist: 
  twist: 
    linear: 
      x: -0.04
      y: 0.0
      z: -0.05
    angular: 
      x: 0.0
      y: 0.0
      z: 0.0
  covariance: [-1.0, 0.0, 0.0, 0.0, 0.0, 0.0, 0.0, 0.0, 0.0, 0.0, 0.0, 0.0, 0.0, 0.0, 0.0, 0.0, 0.0, 0.0, 0.0, 0.0, 0.0, 0.0, 0.0, 0.0, 0.0, 0.0, 0.0, 0.0, 0.0, 0.0, 0.0, 0.0, 0.0, 0.0, 0.0, 0.0]
---
header: 
  seq: 3472
  stamp: 
    secs: 1536681209
    nsecs: 923654848
  frame_id: "map"
child_frame_id: "base_link"
pose: 
  pose: 
    position: 
      x: -0.0226488204926
      y: 0.0111187941791
      z: 0.094
    orientation: 
      x: 0.00700366562342
      y: -0.0157659164035
      z: -0.00945868003651
      w: -0.999806444557
  covariance: [1.0, 0.0, 0.0, 0.0, 0.0, 0.0, 0.0, 1.0, 0.0, 0.0, 0.0, 0.0, 0.0, 0.0, 1.0, 0.0, 0.0, 0.0, 0.0, 0.0, 0.0, 99999.0, 0.0, 0.0, 0.0, 0.0, 0.0, 0.0, 99999.0, 0.0, 0.0, 0.0, 0.0, 0.0, 0.0, 99999.0]
twist: 
  twist: 
    linear: 
      x: -0.04
      y: 0.0
      z: -0.05
    angular: 
      x: 0.0
      y: 0.0
      z: 0.0
  covariance: [-1.0, 0.0, 0.0, 0.0, 0.0, 0.0, 0.0, 0.0, 0.0, 0.0, 0.0, 0.0, 0.0, 0.0, 0.0, 0.0, 0.0, 0.0, 0.0, 0.0, 0.0, 0.0, 0.0, 0.0, 0.0, 0.0, 0.0, 0.0, 0.0, 0.0, 0.0, 0.0, 0.0, 0.0, 0.0, 0.0]
---
header: 
  seq: 3473
  stamp: 
    secs: 1536681209
    nsecs: 967038528
  frame_id: "map"
child_frame_id: "base_link"
pose: 
  pose: 
    position: 
      x: -0.0226488205514
      y: 0.0111187940157
      z: 0.093
    orientation: 
      x: 0.00698363994348
      y: -0.0157519875286
      z: -0.00943596288516
      w: -0.99980707676
  covariance: [1.0, 0.0, 0.0, 0.0, 0.0, 0.0, 0.0, 1.0, 0.0, 0.0, 0.0, 0.0, 0.0, 0.0, 1.0, 0.0, 0.0, 0.0, 0.0, 0.0, 0.0, 99999.0, 0.0, 0.0, 0.0, 0.0, 0.0, 0.0, 99999.0, 0.0, 0.0, 0.0, 0.0, 0.0, 0.0, 99999.0]
twist: 
  twist: 
    linear: 
      x: -0.04
      y: 0.0
      z: -0.05
    angular: 
      x: 0.0
      y: 0.0
      z: 0.0
  covariance: [-1.0, 0.0, 0.0, 0.0, 0.0, 0.0, 0.0, 0.0, 0.0, 0.0, 0.0, 0.0, 0.0, 0.0, 0.0, 0.0, 0.0, 0.0, 0.0, 0.0, 0.0, 0.0, 0.0, 0.0, 0.0, 0.0, 0.0, 0.0, 0.0, 0.0, 0.0, 0.0, 0.0, 0.0, 0.0, 0.0]
---
header: 
  seq: 3474
  stamp: 
    secs: 1536681209
    nsecs: 999038528
  frame_id: "map"
child_frame_id: "base_link"
pose: 
  pose: 
    position: 
      x: -0.0226488204718
      y: 0.0111187951607
      z: 0.092
    orientation: 
      x: 0.00693398272413
      y: -0.0156870764428
      z: -0.00947153482531
      w: -0.999808088284
  covariance: [1.0, 0.0, 0.0, 0.0, 0.0, 0.0, 0.0, 1.0, 0.0, 0.0, 0.0, 0.0, 0.0, 0.0, 1.0, 0.0, 0.0, 0.0, 0.0, 0.0, 0.0, 99999.0, 0.0, 0.0, 0.0, 0.0, 0.0, 0.0, 99999.0, 0.0, 0.0, 0.0, 0.0, 0.0, 0.0, 99999.0]
twist: 
  twist: 
    linear: 
      x: -0.04
      y: 0.0
      z: -0.05
    angular: 
      x: 0.0
      y: 0.0
      z: 0.0
  covariance: [-1.0, 0.0, 0.0, 0.0, 0.0, 0.0, 0.0, 0.0, 0.0, 0.0, 0.0, 0.0, 0.0, 0.0, 0.0, 0.0, 0.0, 0.0, 0.0, 0.0, 0.0, 0.0, 0.0, 0.0, 0.0, 0.0, 0.0, 0.0, 0.0, 0.0, 0.0, 0.0, 0.0, 0.0, 0.0, 0.0]
---
header: 
  seq: 3475
  stamp: 
    secs: 1536681210
    nsecs:  45422976
  frame_id: "map"
child_frame_id: "base_link"
pose: 
  pose: 
    position: 
      x: -0.0226488205539
      y: 0.0111187943067
      z: 0.091
    orientation: 
      x: 0.00695424811427
      y: -0.0157181985977
      z: -0.0094121920626
      w: -0.999808003991
  covariance: [1.0, 0.0, 0.0, 0.0, 0.0, 0.0, 0.0, 1.0, 0.0, 0.0, 0.0, 0.0, 0.0, 0.0, 1.0, 0.0, 0.0, 0.0, 0.0, 0.0, 0.0, 99999.0, 0.0, 0.0, 0.0, 0.0, 0.0, 0.0, 99999.0, 0.0, 0.0, 0.0, 0.0, 0.0, 0.0, 99999.0]
twist: 
  twist: 
    linear: 
      x: -0.04
      y: 0.0
      z: -0.05
    angular: 
      x: 0.0
      y: 0.0
      z: 0.0
  covariance: [-1.0, 0.0, 0.0, 0.0, 0.0, 0.0, 0.0, 0.0, 0.0, 0.0, 0.0, 0.0, 0.0, 0.0, 0.0, 0.0, 0.0, 0.0, 0.0, 0.0, 0.0, 0.0, 0.0, 0.0, 0.0, 0.0, 0.0, 0.0, 0.0, 0.0, 0.0, 0.0, 0.0, 0.0, 0.0, 0.0]
---
header: 
  seq: 3476
  stamp: 
    secs: 1536681210
    nsecs:  81422976
  frame_id: "map"
child_frame_id: "base_link"
pose: 
  pose: 
    position: 
      x: -0.0226488204977
      y: 0.011118794761
      z: 0.09
    orientation: 
      x: 0.00698203770469
      y: -0.0156500823758
      z: -0.0093939424772
      w: -0.999809057662
  covariance: [1.0, 0.0, 0.0, 0.0, 0.0, 0.0, 0.0, 1.0, 0.0, 0.0, 0.0, 0.0, 0.0, 0.0, 1.0, 0.0, 0.0, 0.0, 0.0, 0.0, 0.0, 99999.0, 0.0, 0.0, 0.0, 0.0, 0.0, 0.0, 99999.0, 0.0, 0.0, 0.0, 0.0, 0.0, 0.0, 99999.0]
twist: 
  twist: 
    linear: 
      x: -0.05
      y: 0.0
      z: -0.05
    angular: 
      x: 0.0
      y: 0.0
      z: 0.0
  covariance: [-1.0, 0.0, 0.0, 0.0, 0.0, 0.0, 0.0, 0.0, 0.0, 0.0, 0.0, 0.0, 0.0, 0.0, 0.0, 0.0, 0.0, 0.0, 0.0, 0.0, 0.0, 0.0, 0.0, 0.0, 0.0, 0.0, 0.0, 0.0, 0.0, 0.0, 0.0, 0.0, 0.0, 0.0, 0.0, 0.0]
---
header: 
  seq: 3477
  stamp: 
    secs: 1536681210
    nsecs: 120422976
  frame_id: "map"
child_frame_id: "base_link"
pose: 
  pose: 
    position: 
      x: -0.0226488204414
      y: 0.0111187945848
      z: 0.089
    orientation: 
      x: 0.00689164687334
      y: -0.0156266635453
      z: -0.0094065443849
      w: -0.999809942746
  covariance: [1.0, 0.0, 0.0, 0.0, 0.0, 0.0, 0.0, 1.0, 0.0, 0.0, 0.0, 0.0, 0.0, 0.0, 1.0, 0.0, 0.0, 0.0, 0.0, 0.0, 0.0, 99999.0, 0.0, 0.0, 0.0, 0.0, 0.0, 0.0, 99999.0, 0.0, 0.0, 0.0, 0.0, 0.0, 0.0, 99999.0]
twist: 
  twist: 
    linear: 
      x: -0.05
      y: 0.0
      z: -0.05
    angular: 
      x: 0.0
      y: 0.0
      z: 0.0
  covariance: [-1.0, 0.0, 0.0, 0.0, 0.0, 0.0, 0.0, 0.0, 0.0, 0.0, 0.0, 0.0, 0.0, 0.0, 0.0, 0.0, 0.0, 0.0, 0.0, 0.0, 0.0, 0.0, 0.0, 0.0, 0.0, 0.0, 0.0, 0.0, 0.0, 0.0, 0.0, 0.0, 0.0, 0.0, 0.0, 0.0]
---
header: 
  seq: 3478
  stamp: 
    secs: 1536681210
    nsecs: 156810496
  frame_id: "map"
child_frame_id: "base_link"
pose: 
  pose: 
    position: 
      x: -0.0226488204439
      y: 0.0111187948758
      z: 0.087
    orientation: 
      x: 0.00690116251221
      y: -0.0155795081365
      z: -0.00936629414458
      w: -0.999810996417
  covariance: [1.0, 0.0, 0.0, 0.0, 0.0, 0.0, 0.0, 1.0, 0.0, 0.0, 0.0, 0.0, 0.0, 0.0, 1.0, 0.0, 0.0, 0.0, 0.0, 0.0, 0.0, 99999.0, 0.0, 0.0, 0.0, 0.0, 0.0, 0.0, 99999.0, 0.0, 0.0, 0.0, 0.0, 0.0, 0.0, 99999.0]
twist: 
  twist: 
    linear: 
      x: -0.05
      y: 0.0
      z: -0.04
    angular: 
      x: 0.0
      y: 0.0
      z: 0.0
  covariance: [-1.0, 0.0, 0.0, 0.0, 0.0, 0.0, 0.0, 0.0, 0.0, 0.0, 0.0, 0.0, 0.0, 0.0, 0.0, 0.0, 0.0, 0.0, 0.0, 0.0, 0.0, 0.0, 0.0, 0.0, 0.0, 0.0, 0.0, 0.0, 0.0, 0.0, 0.0, 0.0, 0.0, 0.0, 0.0, 0.0]
---
header: 
  seq: 3479
  stamp: 
    secs: 1536681210
    nsecs: 198810496
  frame_id: "map"
child_frame_id: "base_link"
pose: 
  pose: 
    position: 
      x: -0.0226488203876
      y: 0.0111187946997
      z: 0.086
    orientation: 
      x: 0.00687809666155
      y: -0.015636957913
      z: -0.00939364744926
      w: -0.999809942746
  covariance: [1.0, 0.0, 0.0, 0.0, 0.0, 0.0, 0.0, 1.0, 0.0, 0.0, 0.0, 0.0, 0.0, 0.0, 1.0, 0.0, 0.0, 0.0, 0.0, 0.0, 0.0, 99999.0, 0.0, 0.0, 0.0, 0.0, 0.0, 0.0, 99999.0, 0.0, 0.0, 0.0, 0.0, 0.0, 0.0, 99999.0]
twist: 
  twist: 
    linear: 
      x: -0.05
      y: 0.0
      z: -0.04
    angular: 
      x: 0.0
      y: 0.0
      z: 0.0
  covariance: [-1.0, 0.0, 0.0, 0.0, 0.0, 0.0, 0.0, 0.0, 0.0, 0.0, 0.0, 0.0, 0.0, 0.0, 0.0, 0.0, 0.0, 0.0, 0.0, 0.0, 0.0, 0.0, 0.0, 0.0, 0.0, 0.0, 0.0, 0.0, 0.0, 0.0, 0.0, 0.0, 0.0, 0.0, 0.0, 0.0]
---
header: 
  seq: 3480
  stamp: 
    secs: 1536681210
    nsecs: 241200320
  frame_id: "map"
child_frame_id: "base_link"
pose: 
  pose: 
    position: 
      x: -0.0301984271149
      y: 0.0111187946882
      z: 0.084
    orientation: 
      x: 0.00676552242917
      y: -0.0156296849475
      z: -0.00929026122986
      w: -0.999811839354
  covariance: [1.0, 0.0, 0.0, 0.0, 0.0, 0.0, 0.0, 1.0, 0.0, 0.0, 0.0, 0.0, 0.0, 0.0, 1.0, 0.0, 0.0, 0.0, 0.0, 0.0, 0.0, 99999.0, 0.0, 0.0, 0.0, 0.0, 0.0, 0.0, 99999.0, 0.0, 0.0, 0.0, 0.0, 0.0, 0.0, 99999.0]
twist: 
  twist: 
    linear: 
      x: -0.05
      y: 0.0
      z: -0.04
    angular: 
      x: 0.0
      y: 0.0
      z: 0.0
  covariance: [-1.0, 0.0, 0.0, 0.0, 0.0, 0.0, 0.0, 0.0, 0.0, 0.0, 0.0, 0.0, 0.0, 0.0, 0.0, 0.0, 0.0, 0.0, 0.0, 0.0, 0.0, 0.0, 0.0, 0.0, 0.0, 0.0, 0.0, 0.0, 0.0, 0.0, 0.0, 0.0, 0.0, 0.0, 0.0, 0.0]
---
header: 
  seq: 3481
  stamp: 
    secs: 1536681210
    nsecs: 276200320
  frame_id: "map"
child_frame_id: "base_link"
pose: 
  pose: 
    position: 
      x: -0.030198427197
      y: 0.0111187944646
      z: 0.083
    orientation: 
      x: 0.00673292776875
      y: -0.0156607149062
      z: -0.00935297574045
      w: -0.999810996417
  covariance: [1.0, 0.0, 0.0, 0.0, 0.0, 0.0, 0.0, 1.0, 0.0, 0.0, 0.0, 0.0, 0.0, 0.0, 1.0, 0.0, 0.0, 0.0, 0.0, 0.0, 0.0, 99999.0, 0.0, 0.0, 0.0, 0.0, 0.0, 0.0, 99999.0, 0.0, 0.0, 0.0, 0.0, 0.0, 0.0, 99999.0]
twist: 
  twist: 
    linear: 
      x: -0.05
      y: 0.0
      z: -0.04
    angular: 
      x: 0.0
      y: 0.0
      z: 0.0
  covariance: [-1.0, 0.0, 0.0, 0.0, 0.0, 0.0, 0.0, 0.0, 0.0, 0.0, 0.0, 0.0, 0.0, 0.0, 0.0, 0.0, 0.0, 0.0, 0.0, 0.0, 0.0, 0.0, 0.0, 0.0, 0.0, 0.0, 0.0, 0.0, 0.0, 0.0, 0.0, 0.0, 0.0, 0.0, 0.0, 0.0]
---
header: 
  seq: 3482
  stamp: 
    secs: 1536681210
    nsecs: 316200320
  frame_id: "map"
child_frame_id: "base_link"
pose: 
  pose: 
    position: 
      x: -0.03019842712
      y: 0.0111187952701
      z: 0.08
    orientation: 
      x: 0.00678340915656
      y: -0.015592842675
      z: -0.0094902058792
      w: -0.999810406361
  covariance: [1.0, 0.0, 0.0, 0.0, 0.0, 0.0, 0.0, 1.0, 0.0, 0.0, 0.0, 0.0, 0.0, 0.0, 1.0, 0.0, 0.0, 0.0, 0.0, 0.0, 0.0, 99999.0, 0.0, 0.0, 0.0, 0.0, 0.0, 0.0, 99999.0, 0.0, 0.0, 0.0, 0.0, 0.0, 0.0, 99999.0]
twist: 
  twist: 
    linear: 
      x: -0.05
      y: 0.0
      z: -0.04
    angular: 
      x: 0.0
      y: 0.0
      z: 0.0
  covariance: [-1.0, 0.0, 0.0, 0.0, 0.0, 0.0, 0.0, 0.0, 0.0, 0.0, 0.0, 0.0, 0.0, 0.0, 0.0, 0.0, 0.0, 0.0, 0.0, 0.0, 0.0, 0.0, 0.0, 0.0, 0.0, 0.0, 0.0, 0.0, 0.0, 0.0, 0.0, 0.0, 0.0, 0.0, 0.0, 0.0]
---
header: 
  seq: 3483
  stamp: 
    secs: 1536681210
    nsecs: 352586560
  frame_id: "map"
child_frame_id: "base_link"
pose: 
  pose: 
    position: 
      x: -0.0301984272021
      y: 0.011118794416
      z: 0.079
    orientation: 
      x: 0.0067734993788
      y: -0.0156505575157
      z: -0.00946576070706
      w: -0.999809816305
  covariance: [1.0, 0.0, 0.0, 0.0, 0.0, 0.0, 0.0, 1.0, 0.0, 0.0, 0.0, 0.0, 0.0, 0.0, 1.0, 0.0, 0.0, 0.0, 0.0, 0.0, 0.0, 99999.0, 0.0, 0.0, 0.0, 0.0, 0.0, 0.0, 99999.0, 0.0, 0.0, 0.0, 0.0, 0.0, 0.0, 99999.0]
twist: 
  twist: 
    linear: 
      x: -0.05
      y: 0.0
      z: -0.04
    angular: 
      x: 0.0
      y: 0.0
      z: 0.0
  covariance: [-1.0, 0.0, 0.0, 0.0, 0.0, 0.0, 0.0, 0.0, 0.0, 0.0, 0.0, 0.0, 0.0, 0.0, 0.0, 0.0, 0.0, 0.0, 0.0, 0.0, 0.0, 0.0, 0.0, 0.0, 0.0, 0.0, 0.0, 0.0, 0.0, 0.0, 0.0, 0.0, 0.0, 0.0, 0.0, 0.0]
---
header: 
  seq: 3484
  stamp: 
    secs: 1536681210
    nsecs: 395586560
  frame_id: "map"
child_frame_id: "base_link"
pose: 
  pose: 
    position: 
      x: -0.0301984270895
      y: 0.0111187953247
      z: 0.077
    orientation: 
      x: 0.00680357378939
      y: -0.0155725226257
      z: -0.00949214463423
      w: -0.999810574949
  covariance: [1.0, 0.0, 0.0, 0.0, 0.0, 0.0, 0.0, 1.0, 0.0, 0.0, 0.0, 0.0, 0.0, 0.0, 1.0, 0.0, 0.0, 0.0, 0.0, 0.0, 0.0, 99999.0, 0.0, 0.0, 0.0, 0.0, 0.0, 0.0, 99999.0, 0.0, 0.0, 0.0, 0.0, 0.0, 0.0, 99999.0]
twist: 
  twist: 
    linear: 
      x: -0.05
      y: 0.0
      z: -0.04
    angular: 
      x: 0.0
      y: 0.0
      z: 0.0
  covariance: [-1.0, 0.0, 0.0, 0.0, 0.0, 0.0, 0.0, 0.0, 0.0, 0.0, 0.0, 0.0, 0.0, 0.0, 0.0, 0.0, 0.0, 0.0, 0.0, 0.0, 0.0, 0.0, 0.0, 0.0, 0.0, 0.0, 0.0, 0.0, 0.0, 0.0, 0.0, 0.0, 0.0, 0.0, 0.0, 0.0]
---
header: 
  seq: 3485
  stamp: 
    secs: 1536681210
    nsecs: 431586560
  frame_id: "map"
child_frame_id: "base_link"
pose: 
  pose: 
    position: 
      x: -0.0301984271153
      y: 0.0111187942945
      z: 0.075
    orientation: 
      x: 0.00678475620935
      y: -0.015553600337
      z: -0.00943895531141
      w: -0.999811502179
  covariance: [1.0, 0.0, 0.0, 0.0, 0.0, 0.0, 0.0, 1.0, 0.0, 0.0, 0.0, 0.0, 0.0, 0.0, 1.0, 0.0, 0.0, 0.0, 0.0, 0.0, 0.0, 99999.0, 0.0, 0.0, 0.0, 0.0, 0.0, 0.0, 99999.0, 0.0, 0.0, 0.0, 0.0, 0.0, 0.0, 99999.0]
twist: 
  twist: 
    linear: 
      x: -0.06
      y: 0.0
      z: -0.03
    angular: 
      x: 0.0
      y: 0.0
      z: 0.0
  covariance: [-1.0, 0.0, 0.0, 0.0, 0.0, 0.0, 0.0, 0.0, 0.0, 0.0, 0.0, 0.0, 0.0, 0.0, 0.0, 0.0, 0.0, 0.0, 0.0, 0.0, 0.0, 0.0, 0.0, 0.0, 0.0, 0.0, 0.0, 0.0, 0.0, 0.0, 0.0, 0.0, 0.0, 0.0, 0.0, 0.0]
---
header: 
  seq: 3486
  stamp: 
    secs: 1536681210
    nsecs: 467972032
  frame_id: "map"
child_frame_id: "base_link"
pose: 
  pose: 
    position: 
      x: -0.0301984271179
      y: 0.0111187945854
      z: 0.073
    orientation: 
      x: 0.00683315231597
      y: -0.0155397830854
      z: -0.00936321742463
      w: -0.999812050088
  covariance: [1.0, 0.0, 0.0, 0.0, 0.0, 0.0, 0.0, 1.0, 0.0, 0.0, 0.0, 0.0, 0.0, 0.0, 1.0, 0.0, 0.0, 0.0, 0.0, 0.0, 0.0, 99999.0, 0.0, 0.0, 0.0, 0.0, 0.0, 0.0, 99999.0, 0.0, 0.0, 0.0, 0.0, 0.0, 0.0, 99999.0]
twist: 
  twist: 
    linear: 
      x: -0.06
      y: 0.0
      z: -0.03
    angular: 
      x: 0.0
      y: 0.0
      z: 0.0
  covariance: [-1.0, 0.0, 0.0, 0.0, 0.0, 0.0, 0.0, 0.0, 0.0, 0.0, 0.0, 0.0, 0.0, 0.0, 0.0, 0.0, 0.0, 0.0, 0.0, 0.0, 0.0, 0.0, 0.0, 0.0, 0.0, 0.0, 0.0, 0.0, 0.0, 0.0, 0.0, 0.0, 0.0, 0.0, 0.0, 0.0]
---
header: 
  seq: 3487
  stamp: 
    secs: 1536681210
    nsecs: 508972032
  frame_id: "map"
child_frame_id: "base_link"
pose: 
  pose: 
    position: 
      x: -0.0301984270616
      y: 0.0111187950398
      z: 0.072
    orientation: 
      x: 0.00684309633804
      y: -0.0155640359626
      z: -0.00925865109348
      w: -0.999812597997
  covariance: [1.0, 0.0, 0.0, 0.0, 0.0, 0.0, 0.0, 1.0, 0.0, 0.0, 0.0, 0.0, 0.0, 0.0, 1.0, 0.0, 0.0, 0.0, 0.0, 0.0, 0.0, 99999.0, 0.0, 0.0, 0.0, 0.0, 0.0, 0.0, 99999.0, 0.0, 0.0, 0.0, 0.0, 0.0, 0.0, 99999.0]
twist: 
  twist: 
    linear: 
      x: -0.06
      y: 0.0
      z: -0.03
    angular: 
      x: 0.0
      y: 0.0
      z: 0.0
  covariance: [-1.0, 0.0, 0.0, 0.0, 0.0, 0.0, 0.0, 0.0, 0.0, 0.0, 0.0, 0.0, 0.0, 0.0, 0.0, 0.0, 0.0, 0.0, 0.0, 0.0, 0.0, 0.0, 0.0, 0.0, 0.0, 0.0, 0.0, 0.0, 0.0, 0.0, 0.0, 0.0, 0.0, 0.0, 0.0, 0.0]
---
header: 
  seq: 3488
  stamp: 
    secs: 1536681210
    nsecs: 547358528
  frame_id: "map"
child_frame_id: "base_link"
pose: 
  pose: 
    position: 
      x: -0.0301984270874
      y: 0.0111187940096
      z: 0.07
    orientation: 
      x: 0.00681045261605
      y: -0.015566502541
      z: -0.00927942948979
      w: -0.99981255585
  covariance: [1.0, 0.0, 0.0, 0.0, 0.0, 0.0, 0.0, 1.0, 0.0, 0.0, 0.0, 0.0, 0.0, 0.0, 1.0, 0.0, 0.0, 0.0, 0.0, 0.0, 0.0, 99999.0, 0.0, 0.0, 0.0, 0.0, 0.0, 0.0, 99999.0, 0.0, 0.0, 0.0, 0.0, 0.0, 0.0, 99999.0]
twist: 
  twist: 
    linear: 
      x: -0.06
      y: 0.0
      z: -0.03
    angular: 
      x: 0.0
      y: 0.0
      z: 0.0
  covariance: [-1.0, 0.0, 0.0, 0.0, 0.0, 0.0, 0.0, 0.0, 0.0, 0.0, 0.0, 0.0, 0.0, 0.0, 0.0, 0.0, 0.0, 0.0, 0.0, 0.0, 0.0, 0.0, 0.0, 0.0, 0.0, 0.0, 0.0, 0.0, 0.0, 0.0, 0.0, 0.0, 0.0, 0.0, 0.0, 0.0]
---
header: 
  seq: 3489
  stamp: 
    secs: 1536681210
    nsecs: 589358528
  frame_id: "map"
child_frame_id: "base_link"
pose: 
  pose: 
    position: 
      x: -0.030198427123
      y: 0.0111187951673
      z: 0.069
    orientation: 
      x: 0.00682758333433
      y: -0.0155961811664
      z: -0.00921722074139
      w: -0.999812640144
  covariance: [1.0, 0.0, 0.0, 0.0, 0.0, 0.0, 0.0, 1.0, 0.0, 0.0, 0.0, 0.0, 0.0, 0.0, 1.0, 0.0, 0.0, 0.0, 0.0, 0.0, 0.0, 99999.0, 0.0, 0.0, 0.0, 0.0, 0.0, 0.0, 99999.0, 0.0, 0.0, 0.0, 0.0, 0.0, 0.0, 99999.0]
twist: 
  twist: 
    linear: 
      x: -0.06
      y: -0.01
      z: -0.03
    angular: 
      x: 0.0
      y: 0.0
      z: 0.0
  covariance: [-1.0, 0.0, 0.0, 0.0, 0.0, 0.0, 0.0, 0.0, 0.0, 0.0, 0.0, 0.0, 0.0, 0.0, 0.0, 0.0, 0.0, 0.0, 0.0, 0.0, 0.0, 0.0, 0.0, 0.0, 0.0, 0.0, 0.0, 0.0, 0.0, 0.0, 0.0, 0.0, 0.0, 0.0, 0.0, 0.0]
---
header: 
  seq: 3490
  stamp: 
    secs: 1536681210
    nsecs: 626358528
  frame_id: "map"
child_frame_id: "base_link"
pose: 
  pose: 
    position: 
      x: -0.0301984271488
      y: 0.0111187941372
      z: 0.067
    orientation: 
      x: 0.00682925537884
      y: -0.0156414501744
      z: -0.00930830008102
      w: -0.999811080711
  covariance: [1.0, 0.0, 0.0, 0.0, 0.0, 0.0, 0.0, 1.0, 0.0, 0.0, 0.0, 0.0, 0.0, 0.0, 1.0, 0.0, 0.0, 0.0, 0.0, 0.0, 0.0, 99999.0, 0.0, 0.0, 0.0, 0.0, 0.0, 0.0, 99999.0, 0.0, 0.0, 0.0, 0.0, 0.0, 0.0, 99999.0]
twist: 
  twist: 
    linear: 
      x: -0.06
      y: 0.0
      z: -0.03
    angular: 
      x: 0.0
      y: 0.0
      z: 0.0
  covariance: [-1.0, 0.0, 0.0, 0.0, 0.0, 0.0, 0.0, 0.0, 0.0, 0.0, 0.0, 0.0, 0.0, 0.0, 0.0, 0.0, 0.0, 0.0, 0.0, 0.0, 0.0, 0.0, 0.0, 0.0, 0.0, 0.0, 0.0, 0.0, 0.0, 0.0, 0.0, 0.0, 0.0, 0.0, 0.0, 0.0]
---
header: 
  seq: 3491
  stamp: 
    secs: 1536681210
    nsecs: 658749120
  frame_id: "map"
child_frame_id: "base_link"
pose: 
  pose: 
    position: 
      x: -0.0301984270925
      y: 0.0111187945915
      z: 0.066
    orientation: 
      x: 0.0069134667578
      y: -0.0156580250811
      z: -0.00926252860354
      w: -0.999810659242
  covariance: [1.0, 0.0, 0.0, 0.0, 0.0, 0.0, 0.0, 1.0, 0.0, 0.0, 0.0, 0.0, 0.0, 0.0, 1.0, 0.0, 0.0, 0.0, 0.0, 0.0, 0.0, 99999.0, 0.0, 0.0, 0.0, 0.0, 0.0, 0.0, 99999.0, 0.0, 0.0, 0.0, 0.0, 0.0, 0.0, 99999.0]
twist: 
  twist: 
    linear: 
      x: -0.06
      y: -0.01
      z: -0.03
    angular: 
      x: 0.0
      y: 0.0
      z: 0.0
  covariance: [-1.0, 0.0, 0.0, 0.0, 0.0, 0.0, 0.0, 0.0, 0.0, 0.0, 0.0, 0.0, 0.0, 0.0, 0.0, 0.0, 0.0, 0.0, 0.0, 0.0, 0.0, 0.0, 0.0, 0.0, 0.0, 0.0, 0.0, 0.0, 0.0, 0.0, 0.0, 0.0, 0.0, 0.0, 0.0, 0.0]
---
header: 
  seq: 3492
  stamp: 
    secs: 1536681210
    nsecs: 699749120
  frame_id: "map"
child_frame_id: "base_link"
pose: 
  pose: 
    position: 
      x: -0.0377480339912
      y: 0.0111187947689
      z: 0.065
    orientation: 
      x: 0.00691687900617
      y: -0.0157496091951
      z: -0.00925599584202
      w: -0.999809268396
  covariance: [1.0, 0.0, 0.0, 0.0, 0.0, 0.0, 0.0, 1.0, 0.0, 0.0, 0.0, 0.0, 0.0, 0.0, 1.0, 0.0, 0.0, 0.0, 0.0, 0.0, 0.0, 99999.0, 0.0, 0.0, 0.0, 0.0, 0.0, 0.0, 99999.0, 0.0, 0.0, 0.0, 0.0, 0.0, 0.0, 99999.0]
twist: 
  twist: 
    linear: 
      x: -0.06
      y: -0.01
      z: -0.03
    angular: 
      x: 0.0
      y: 0.0
      z: 0.0
  covariance: [-1.0, 0.0, 0.0, 0.0, 0.0, 0.0, 0.0, 0.0, 0.0, 0.0, 0.0, 0.0, 0.0, 0.0, 0.0, 0.0, 0.0, 0.0, 0.0, 0.0, 0.0, 0.0, 0.0, 0.0, 0.0, 0.0, 0.0, 0.0, 0.0, 0.0, 0.0, 0.0, 0.0, 0.0, 0.0, 0.0]
---
header: 
  seq: 3493
  stamp: 
    secs: 1536681210
    nsecs: 743144576
  frame_id: "map"
child_frame_id: "base_link"
pose: 
  pose: 
    position: 
      x: -0.0377480339349
      y: 0.0111187945928
      z: 0.064
    orientation: 
      x: 0.00690657607734
      y: -0.0157168986309
      z: -0.00923993789274
      w: -0.999809984893
  covariance: [1.0, 0.0, 0.0, 0.0, 0.0, 0.0, 0.0, 1.0, 0.0, 0.0, 0.0, 0.0, 0.0, 0.0, 1.0, 0.0, 0.0, 0.0, 0.0, 0.0, 0.0, 99999.0, 0.0, 0.0, 0.0, 0.0, 0.0, 0.0, 99999.0, 0.0, 0.0, 0.0, 0.0, 0.0, 0.0, 99999.0]
twist: 
  twist: 
    linear: 
      x: -0.06
      y: -0.01
      z: -0.03
    angular: 
      x: 0.0
      y: 0.0
      z: 0.0
  covariance: [-1.0, 0.0, 0.0, 0.0, 0.0, 0.0, 0.0, 0.0, 0.0, 0.0, 0.0, 0.0, 0.0, 0.0, 0.0, 0.0, 0.0, 0.0, 0.0, 0.0, 0.0, 0.0, 0.0, 0.0, 0.0, 0.0, 0.0, 0.0, 0.0, 0.0, 0.0, 0.0, 0.0, 0.0, 0.0, 0.0]
---
header: 
  seq: 3494
  stamp: 
    secs: 1536681210
    nsecs: 783144576
  frame_id: "map"
child_frame_id: "base_link"
pose: 
  pose: 
    position: 
      x: -0.0377480339937
      y: 0.0111187944294
      z: 0.063
    orientation: 
      x: 0.00690852932035
      y: -0.0157831890381
      z: -0.00924132873874
      w: -0.999808846928
  covariance: [1.0, 0.0, 0.0, 0.0, 0.0, 0.0, 0.0, 1.0, 0.0, 0.0, 0.0, 0.0, 0.0, 0.0, 1.0, 0.0, 0.0, 0.0, 0.0, 0.0, 0.0, 99999.0, 0.0, 0.0, 0.0, 0.0, 0.0, 0.0, 99999.0, 0.0, 0.0, 0.0, 0.0, 0.0, 0.0, 99999.0]
twist: 
  twist: 
    linear: 
      x: -0.06
      y: -0.01
      z: -0.03
    angular: 
      x: 0.0
      y: 0.0
      z: 0.0
  covariance: [-1.0, 0.0, 0.0, 0.0, 0.0, 0.0, 0.0, 0.0, 0.0, 0.0, 0.0, 0.0, 0.0, 0.0, 0.0, 0.0, 0.0, 0.0, 0.0, 0.0, 0.0, 0.0, 0.0, 0.0, 0.0, 0.0, 0.0, 0.0, 0.0, 0.0, 0.0, 0.0, 0.0, 0.0, 0.0, 0.0]
---
header: 
  seq: 3495
  stamp: 
    secs: 1536681210
    nsecs: 821144576
  frame_id: "map"
child_frame_id: "base_link"
pose: 
  pose: 
    position: 
      x: -0.0377480340758
      y: 0.0111187942058
      z: 0.062
    orientation: 
      x: 0.00691421980344
      y: -0.0157874399429
      z: -0.0093076678783
      w: -0.999808172578
  covariance: [1.0, 0.0, 0.0, 0.0, 0.0, 0.0, 0.0, 1.0, 0.0, 0.0, 0.0, 0.0, 0.0, 0.0, 1.0, 0.0, 0.0, 0.0, 0.0, 0.0, 0.0, 99999.0, 0.0, 0.0, 0.0, 0.0, 0.0, 0.0, 99999.0, 0.0, 0.0, 0.0, 0.0, 0.0, 0.0, 99999.0]
twist: 
  twist: 
    linear: 
      x: -0.06
      y: -0.01
      z: -0.03
    angular: 
      x: 0.0
      y: 0.0
      z: 0.0
  covariance: [-1.0, 0.0, 0.0, 0.0, 0.0, 0.0, 0.0, 0.0, 0.0, 0.0, 0.0, 0.0, 0.0, 0.0, 0.0, 0.0, 0.0, 0.0, 0.0, 0.0, 0.0, 0.0, 0.0, 0.0, 0.0, 0.0, 0.0, 0.0, 0.0, 0.0, 0.0, 0.0, 0.0, 0.0, 0.0, 0.0]
---
header: 
  seq: 3496
  stamp: 
    secs: 1536681210
    nsecs: 864536448
  frame_id: "map"
child_frame_id: "base_link"
pose: 
  pose: 
    position: 
      x: -0.0377480339963
      y: 0.0111187947203
      z: 0.061
    orientation: 
      x: 0.00692067090544
      y: -0.0158550250487
      z: -0.00940173964417
      w: -0.999806149529
  covariance: [1.0, 0.0, 0.0, 0.0, 0.0, 0.0, 0.0, 1.0, 0.0, 0.0, 0.0, 0.0, 0.0, 0.0, 1.0, 0.0, 0.0, 0.0, 0.0, 0.0, 0.0, 99999.0, 0.0, 0.0, 0.0, 0.0, 0.0, 0.0, 99999.0, 0.0, 0.0, 0.0, 0.0, 0.0, 0.0, 99999.0]
twist: 
  twist: 
    linear: 
      x: -0.06
      y: -0.01
      z: -0.03
    angular: 
      x: 0.0
      y: 0.0
      z: 0.0
  covariance: [-1.0, 0.0, 0.0, 0.0, 0.0, 0.0, 0.0, 0.0, 0.0, 0.0, 0.0, 0.0, 0.0, 0.0, 0.0, 0.0, 0.0, 0.0, 0.0, 0.0, 0.0, 0.0, 0.0, 0.0, 0.0, 0.0, 0.0, 0.0, 0.0, 0.0, 0.0, 0.0, 0.0, 0.0, 0.0, 0.0]
---
header: 
  seq: 3497
  stamp: 
    secs: 1536681210
    nsecs: 898536448
  frame_id: "map"
child_frame_id: "base_link"
pose: 
  pose: 
    position: 
      x: -0.0377480339963
      y: 0.0111187947203
      z: 0.061
    orientation: 
      x: 0.0068373874157
      y: -0.0158661057186
      z: -0.00937586147919
      w: -0.999806823879
  covariance: [1.0, 0.0, 0.0, 0.0, 0.0, 0.0, 0.0, 1.0, 0.0, 0.0, 0.0, 0.0, 0.0, 0.0, 1.0, 0.0, 0.0, 0.0, 0.0, 0.0, 0.0, 99999.0, 0.0, 0.0, 0.0, 0.0, 0.0, 0.0, 99999.0, 0.0, 0.0, 0.0, 0.0, 0.0, 0.0, 99999.0]
twist: 
  twist: 
    linear: 
      x: -0.06
      y: -0.01
      z: -0.03
    angular: 
      x: 0.0
      y: 0.0
      z: 0.0
  covariance: [-1.0, 0.0, 0.0, 0.0, 0.0, 0.0, 0.0, 0.0, 0.0, 0.0, 0.0, 0.0, 0.0, 0.0, 0.0, 0.0, 0.0, 0.0, 0.0, 0.0, 0.0, 0.0, 0.0, 0.0, 0.0, 0.0, 0.0, 0.0, 0.0, 0.0, 0.0, 0.0, 0.0, 0.0, 0.0, 0.0]
---
header: 
  seq: 3498
  stamp: 
    secs: 1536681210
    nsecs: 932926528
  frame_id: "map"
child_frame_id: "base_link"
pose: 
  pose: 
    position: 
      x: -0.0377480339413
      y: 1.07067688049e-10
      z: 0.06
    orientation: 
      x: 0.00684236831708
      y: -0.0158992598126
      z: -0.00942015781697
      w: -0.999805854501
  covariance: [1.0, 0.0, 0.0, 0.0, 0.0, 0.0, 0.0, 1.0, 0.0, 0.0, 0.0, 0.0, 0.0, 0.0, 1.0, 0.0, 0.0, 0.0, 0.0, 0.0, 0.0, 99999.0, 0.0, 0.0, 0.0, 0.0, 0.0, 0.0, 99999.0, 0.0, 0.0, 0.0, 0.0, 0.0, 0.0, 99999.0]
twist: 
  twist: 
    linear: 
      x: -0.06
      y: -0.01
      z: -0.03
    angular: 
      x: 0.0
      y: 0.0
      z: 0.0
  covariance: [-1.0, 0.0, 0.0, 0.0, 0.0, 0.0, 0.0, 0.0, 0.0, 0.0, 0.0, 0.0, 0.0, 0.0, 0.0, 0.0, 0.0, 0.0, 0.0, 0.0, 0.0, 0.0, 0.0, 0.0, 0.0, 0.0, 0.0, 0.0, 0.0, 0.0, 0.0, 0.0, 0.0, 0.0, 0.0, 0.0]
---
header: 
  seq: 3499
  stamp: 
    secs: 1536681210
    nsecs: 972926528
  frame_id: "map"
child_frame_id: "base_link"
pose: 
  pose: 
    position: 
      x: -0.0377480341152
      y: -4.35769476059e-11
      z: 0.059
    orientation: 
      x: 0.00682065643393
      y: -0.0159404461739
      z: -0.00954773632742
      w: -0.999804126481
  covariance: [1.0, 0.0, 0.0, 0.0, 0.0, 0.0, 0.0, 1.0, 0.0, 0.0, 0.0, 0.0, 0.0, 0.0, 1.0, 0.0, 0.0, 0.0, 0.0, 0.0, 0.0, 99999.0, 0.0, 0.0, 0.0, 0.0, 0.0, 0.0, 99999.0, 0.0, 0.0, 0.0, 0.0, 0.0, 0.0, 99999.0]
twist: 
  twist: 
    linear: 
      x: -0.06
      y: -0.01
      z: -0.03
    angular: 
      x: 0.0
      y: 0.0
      z: 0.0
  covariance: [-1.0, 0.0, 0.0, 0.0, 0.0, 0.0, 0.0, 0.0, 0.0, 0.0, 0.0, 0.0, 0.0, 0.0, 0.0, 0.0, 0.0, 0.0, 0.0, 0.0, 0.0, 0.0, 0.0, 0.0, 0.0, 0.0, 0.0, 0.0, 0.0, 0.0, 0.0, 0.0, 0.0, 0.0, 0.0, 0.0]
---
header: 
  seq: 3500
  stamp: 
    secs: 1536681211
    nsecs:  18926528
  frame_id: "map"
child_frame_id: "base_link"
pose: 
  pose: 
    position: 
      x: -0.0377480340589
      y: -2.19688142677e-10
      z: 0.058
    orientation: 
      x: 0.00682116450101
      y: -0.0159755969748
      z: -0.00950681173751
      w: -0.99980400004
  covariance: [1.0, 0.0, 0.0, 0.0, 0.0, 0.0, 0.0, 1.0, 0.0, 0.0, 0.0, 0.0, 0.0, 0.0, 1.0, 0.0, 0.0, 0.0, 0.0, 0.0, 0.0, 99999.0, 0.0, 0.0, 0.0, 0.0, 0.0, 0.0, 99999.0, 0.0, 0.0, 0.0, 0.0, 0.0, 0.0, 99999.0]
twist: 
  twist: 
    linear: 
      x: -0.06
      y: -0.01
      z: -0.03
    angular: 
      x: 0.0
      y: 0.0
      z: 0.0
  covariance: [-1.0, 0.0, 0.0, 0.0, 0.0, 0.0, 0.0, 0.0, 0.0, 0.0, 0.0, 0.0, 0.0, 0.0, 0.0, 0.0, 0.0, 0.0, 0.0, 0.0, 0.0, 0.0, 0.0, 0.0, 0.0, 0.0, 0.0, 0.0, 0.0, 0.0, 0.0, 0.0, 0.0, 0.0, 0.0, 0.0]
---
header: 
  seq: 3501
  stamp: 
    secs: 1536681211
    nsecs:  52324288
  frame_id: "map"
child_frame_id: "base_link"
pose: 
  pose: 
    position: 
      x: -0.0377480339108
      y: -4.68757234418e-10
      z: 0.057
    orientation: 
      x: 0.00682931201367
      y: -0.0160676983755
      z: -0.00946858454591
      w: -0.999802777782
  covariance: [1.0, 0.0, 0.0, 0.0, 0.0, 0.0, 0.0, 1.0, 0.0, 0.0, 0.0, 0.0, 0.0, 0.0, 1.0, 0.0, 0.0, 0.0, 0.0, 0.0, 0.0, 99999.0, 0.0, 0.0, 0.0, 0.0, 0.0, 0.0, 99999.0, 0.0, 0.0, 0.0, 0.0, 0.0, 0.0, 99999.0]
twist: 
  twist: 
    linear: 
      x: -0.06
      y: -0.01
      z: -0.03
    angular: 
      x: 0.0
      y: 0.0
      z: 0.0
  covariance: [-1.0, 0.0, 0.0, 0.0, 0.0, 0.0, 0.0, 0.0, 0.0, 0.0, 0.0, 0.0, 0.0, 0.0, 0.0, 0.0, 0.0, 0.0, 0.0, 0.0, 0.0, 0.0, 0.0, 0.0, 0.0, 0.0, 0.0, 0.0, 0.0, 0.0, 0.0, 0.0, 0.0, 0.0, 0.0, 0.0]
---
header: 
  seq: 3502
  stamp: 
    secs: 1536681211
    nsecs:  94324288
  frame_id: "map"
child_frame_id: "base_link"
pose: 
  pose: 
    position: 
      x: -0.0377480340847
      y: -6.19401866603e-10
      z: 0.056
    orientation: 
      x: 0.00693748947363
      y: -0.0162149150125
      z: -0.00949315615859
      w: -0.999799448181
  covariance: [1.0, 0.0, 0.0, 0.0, 0.0, 0.0, 0.0, 1.0, 0.0, 0.0, 0.0, 0.0, 0.0, 0.0, 1.0, 0.0, 0.0, 0.0, 0.0, 0.0, 0.0, 99999.0, 0.0, 0.0, 0.0, 0.0, 0.0, 0.0, 99999.0, 0.0, 0.0, 0.0, 0.0, 0.0, 0.0, 99999.0]
twist: 
  twist: 
    linear: 
      x: -0.06
      y: 0.0
      z: -0.03
    angular: 
      x: 0.0
      y: 0.0
      z: 0.0
  covariance: [-1.0, 0.0, 0.0, 0.0, 0.0, 0.0, 0.0, 0.0, 0.0, 0.0, 0.0, 0.0, 0.0, 0.0, 0.0, 0.0, 0.0, 0.0, 0.0, 0.0, 0.0, 0.0, 0.0, 0.0, 0.0, 0.0, 0.0, 0.0, 0.0, 0.0, 0.0, 0.0, 0.0, 0.0, 0.0, 0.0]
---
header: 
  seq: 3503
  stamp: 
    secs: 1536681211
    nsecs: 133720256
  frame_id: "map"
child_frame_id: "base_link"
pose: 
  pose: 
    position: 
      x: -0.0377480340847
      y: -6.19401866603e-10
      z: 0.056
    orientation: 
      x: 0.00688985925428
      y: -0.0161976733295
      z: -0.00952282753995
      w: -0.999799785355
  covariance: [1.0, 0.0, 0.0, 0.0, 0.0, 0.0, 0.0, 1.0, 0.0, 0.0, 0.0, 0.0, 0.0, 0.0, 1.0, 0.0, 0.0, 0.0, 0.0, 0.0, 0.0, 99999.0, 0.0, 0.0, 0.0, 0.0, 0.0, 0.0, 99999.0, 0.0, 0.0, 0.0, 0.0, 0.0, 0.0, 99999.0]
twist: 
  twist: 
    linear: 
      x: -0.06
      y: -0.01
      z: -0.03
    angular: 
      x: 0.0
      y: 0.0
      z: 0.0
  covariance: [-1.0, 0.0, 0.0, 0.0, 0.0, 0.0, 0.0, 0.0, 0.0, 0.0, 0.0, 0.0, 0.0, 0.0, 0.0, 0.0, 0.0, 0.0, 0.0, 0.0, 0.0, 0.0, 0.0, 0.0, 0.0, 0.0, 0.0, 0.0, 0.0, 0.0, 0.0, 0.0, 0.0, 0.0, 0.0, 0.0]
---
header: 
  seq: 3504
  stamp: 
    secs: 1536681211
    nsecs: 167720256
  frame_id: "map"
child_frame_id: "base_link"
pose: 
  pose: 
    position: 
      x: -0.0377480339722
      y: -3.41207374854e-10
      z: 0.054
    orientation: 
      x: 0.00689350693231
      y: -0.0161599604611
      z: -0.0095241762391
      w: -0.999800291117
  covariance: [1.0, 0.0, 0.0, 0.0, 0.0, 0.0, 0.0, 1.0, 0.0, 0.0, 0.0, 0.0, 0.0, 0.0, 1.0, 0.0, 0.0, 0.0, 0.0, 0.0, 0.0, 99999.0, 0.0, 0.0, 0.0, 0.0, 0.0, 0.0, 99999.0, 0.0, 0.0, 0.0, 0.0, 0.0, 0.0, 99999.0]
twist: 
  twist: 
    linear: 
      x: -0.06
      y: -0.01
      z: -0.03
    angular: 
      x: 0.0
      y: 0.0
      z: 0.0
  covariance: [-1.0, 0.0, 0.0, 0.0, 0.0, 0.0, 0.0, 0.0, 0.0, 0.0, 0.0, 0.0, 0.0, 0.0, 0.0, 0.0, 0.0, 0.0, 0.0, 0.0, 0.0, 0.0, 0.0, 0.0, 0.0, 0.0, 0.0, 0.0, 0.0, 0.0, 0.0, 0.0, 0.0, 0.0, 0.0, 0.0]
---
header: 
  seq: 3505
  stamp: 
    secs: 1536681211
    nsecs: 210720256
  frame_id: "map"
child_frame_id: "base_link"
pose: 
  pose: 
    position: 
      x: -0.037748034031
      y: -5.04585286748e-10
      z: 0.053
    orientation: 
      x: 0.00695555763003
      y: -0.0162396390782
      z: -0.00954364808311
      w: -0.999798436656
  covariance: [1.0, 0.0, 0.0, 0.0, 0.0, 0.0, 0.0, 1.0, 0.0, 0.0, 0.0, 0.0, 0.0, 0.0, 1.0, 0.0, 0.0, 0.0, 0.0, 0.0, 0.0, 99999.0, 0.0, 0.0, 0.0, 0.0, 0.0, 0.0, 99999.0, 0.0, 0.0, 0.0, 0.0, 0.0, 0.0, 99999.0]
twist: 
  twist: 
    linear: 
      x: -0.06
      y: -0.01
      z: -0.02
    angular: 
      x: 0.0
      y: 0.0
      z: 0.0
  covariance: [-1.0, 0.0, 0.0, 0.0, 0.0, 0.0, 0.0, 0.0, 0.0, 0.0, 0.0, 0.0, 0.0, 0.0, 0.0, 0.0, 0.0, 0.0, 0.0, 0.0, 0.0, 0.0, 0.0, 0.0, 0.0, 0.0, 0.0, 0.0, 0.0, 0.0, 0.0, 0.0, 0.0, 0.0, 0.0, 0.0]
---
header: 
  seq: 3506
  stamp: 
    secs: 1536681211
    nsecs: 252114432
  frame_id: "map"
child_frame_id: "base_link"
pose: 
  pose: 
    position: 
      x: -0.037748033998
      y: -7.4092109878e-10
      z: 0.052
    orientation: 
      x: 0.0069138144693
      y: -0.0163367447586
      z: -0.00949513706047
      w: -0.999797635866
  covariance: [1.0, 0.0, 0.0, 0.0, 0.0, 0.0, 0.0, 1.0, 0.0, 0.0, 0.0, 0.0, 0.0, 0.0, 1.0, 0.0, 0.0, 0.0, 0.0, 0.0, 0.0, 99999.0, 0.0, 0.0, 0.0, 0.0, 0.0, 0.0, 99999.0, 0.0, 0.0, 0.0, 0.0, 0.0, 0.0, 99999.0]
twist: 
  twist: 
    linear: 
      x: -0.06
      y: -0.01
      z: -0.02
    angular: 
      x: 0.0
      y: 0.0
      z: 0.0
  covariance: [-1.0, 0.0, 0.0, 0.0, 0.0, 0.0, 0.0, 0.0, 0.0, 0.0, 0.0, 0.0, 0.0, 0.0, 0.0, 0.0, 0.0, 0.0, 0.0, 0.0, 0.0, 0.0, 0.0, 0.0, 0.0, 0.0, 0.0, 0.0, 0.0, 0.0, 0.0, 0.0, 0.0, 0.0, 0.0, 0.0]
---
header: 
  seq: 3507
  stamp: 
    secs: 1536681211
    nsecs: 289114432
  frame_id: "map"
child_frame_id: "base_link"
pose: 
  pose: 
    position: 
      x: -0.0377480340005
      y: -4.49993320384e-10
      z: 0.05
    orientation: 
      x: 0.00693595012584
      y: -0.0164140045418
      z: -0.00946125099427
      w: -0.999796455754
  covariance: [1.0, 0.0, 0.0, 0.0, 0.0, 0.0, 0.0, 1.0, 0.0, 0.0, 0.0, 0.0, 0.0, 0.0, 1.0, 0.0, 0.0, 0.0, 0.0, 0.0, 0.0, 99999.0, 0.0, 0.0, 0.0, 0.0, 0.0, 0.0, 99999.0, 0.0, 0.0, 0.0, 0.0, 0.0, 0.0, 99999.0]
twist: 
  twist: 
    linear: 
      x: -0.05
      y: -0.01
      z: -0.02
    angular: 
      x: 0.0
      y: 0.0
      z: 0.0
  covariance: [-1.0, 0.0, 0.0, 0.0, 0.0, 0.0, 0.0, 0.0, 0.0, 0.0, 0.0, 0.0, 0.0, 0.0, 0.0, 0.0, 0.0, 0.0, 0.0, 0.0, 0.0, 0.0, 0.0, 0.0, 0.0, 0.0, 0.0, 0.0, 0.0, 0.0, 0.0, 0.0, 0.0, 0.0, 0.0, 0.0]
---
header: 
  seq: 3508
  stamp: 
    secs: 1536681211
    nsecs: 329114432
  frame_id: "map"
child_frame_id: "base_link"
pose: 
  pose: 
    position: 
      x: -0.0377480339442
      y: -6.26104522394e-10
      z: 0.049
    orientation: 
      x: 0.0069574222988
      y: -0.0163612198946
      z: -0.00945172580651
      w: -0.999797298691
  covariance: [1.0, 0.0, 0.0, 0.0, 0.0, 0.0, 0.0, 1.0, 0.0, 0.0, 0.0, 0.0, 0.0, 0.0, 1.0, 0.0, 0.0, 0.0, 0.0, 0.0, 0.0, 99999.0, 0.0, 0.0, 0.0, 0.0, 0.0, 0.0, 99999.0, 0.0, 0.0, 0.0, 0.0, 0.0, 0.0, 99999.0]
twist: 
  twist: 
    linear: 
      x: -0.05
      y: -0.01
      z: -0.02
    angular: 
      x: 0.0
      y: 0.0
      z: 0.0
  covariance: [-1.0, 0.0, 0.0, 0.0, 0.0, 0.0, 0.0, 0.0, 0.0, 0.0, 0.0, 0.0, 0.0, 0.0, 0.0, 0.0, 0.0, 0.0, 0.0, 0.0, 0.0, 0.0, 0.0, 0.0, 0.0, 0.0, 0.0, 0.0, 0.0, 0.0, 0.0, 0.0, 0.0, 0.0, 0.0, 0.0]
---
header: 
  seq: 3509
  stamp: 
    secs: 1536681211
    nsecs: 365506560
  frame_id: "map"
child_frame_id: "base_link"
pose: 
  pose: 
    position: 
      x: -0.0377480339798
      y: -9.88409389058e-11
      z: 0.048
    orientation: 
      x: 0.00700438870529
      y: -0.0164505616645
      z: -0.00949218678108
      w: -0.999795107055
  covariance: [1.0, 0.0, 0.0, 0.0, 0.0, 0.0, 0.0, 1.0, 0.0, 0.0, 0.0, 0.0, 0.0, 0.0, 1.0, 0.0, 0.0, 0.0, 0.0, 0.0, 0.0, 99999.0, 0.0, 0.0, 0.0, 0.0, 0.0, 0.0, 99999.0, 0.0, 0.0, 0.0, 0.0, 0.0, 0.0, 99999.0]
twist: 
  twist: 
    linear: 
      x: -0.05
      y: -0.01
      z: -0.02
    angular: 
      x: 0.0
      y: 0.0
      z: 0.0
  covariance: [-1.0, 0.0, 0.0, 0.0, 0.0, 0.0, 0.0, 0.0, 0.0, 0.0, 0.0, 0.0, 0.0, 0.0, 0.0, 0.0, 0.0, 0.0, 0.0, 0.0, 0.0, 0.0, 0.0, 0.0, 0.0, 0.0, 0.0, 0.0, 0.0, 0.0, 0.0, 0.0, 0.0, 0.0, 0.0, 0.0]
---
header: 
  seq: 3510
  stamp: 
    secs: 1536681211
    nsecs: 407506560
  frame_id: "map"
child_frame_id: "base_link"
pose: 
  pose: 
    position: 
      x: -0.0377480340619
      y: -3.2244346429e-10
      z: 0.047
    orientation: 
      x: 0.00709599422199
      y: -0.0164991918837
      z: -0.00945598263821
      w: -0.99979396909
  covariance: [1.0, 0.0, 0.0, 0.0, 0.0, 0.0, 0.0, 1.0, 0.0, 0.0, 0.0, 0.0, 0.0, 0.0, 1.0, 0.0, 0.0, 0.0, 0.0, 0.0, 0.0, 99999.0, 0.0, 0.0, 0.0, 0.0, 0.0, 0.0, 99999.0, 0.0, 0.0, 0.0, 0.0, 0.0, 0.0, 99999.0]
twist: 
  twist: 
    linear: 
      x: -0.05
      y: -0.01
      z: -0.02
    angular: 
      x: 0.0
      y: 0.0
      z: 0.0
  covariance: [-1.0, 0.0, 0.0, 0.0, 0.0, 0.0, 0.0, 0.0, 0.0, 0.0, 0.0, 0.0, 0.0, 0.0, 0.0, 0.0, 0.0, 0.0, 0.0, 0.0, 0.0, 0.0, 0.0, 0.0, 0.0, 0.0, 0.0, 0.0, 0.0, 0.0, 0.0, 0.0, 0.0, 0.0, 0.0, 0.0]
---
header: 
  seq: 3511
  stamp: 
    secs: 1536681211
    nsecs: 442896896
  frame_id: "map"
child_frame_id: "base_link"
pose: 
  pose: 
    position: 
      x: -0.0377480339493
      y: -4.42489725416e-11
      z: 0.046
    orientation: 
      x: 0.00713836793908
      y: -0.0165847206809
      z: -0.00948721345295
      w: -0.999791988188
  covariance: [1.0, 0.0, 0.0, 0.0, 0.0, 0.0, 0.0, 1.0, 0.0, 0.0, 0.0, 0.0, 0.0, 0.0, 1.0, 0.0, 0.0, 0.0, 0.0, 0.0, 0.0, 99999.0, 0.0, 0.0, 0.0, 0.0, 0.0, 0.0, 99999.0, 0.0, 0.0, 0.0, 0.0, 0.0, 0.0, 99999.0]
twist: 
  twist: 
    linear: 
      x: -0.05
      y: -0.01
      z: -0.01
    angular: 
      x: 0.0
      y: 0.0
      z: 0.0
  covariance: [-1.0, 0.0, 0.0, 0.0, 0.0, 0.0, 0.0, 0.0, 0.0, 0.0, 0.0, 0.0, 0.0, 0.0, 0.0, 0.0, 0.0, 0.0, 0.0, 0.0, 0.0, 0.0, 0.0, 0.0, 0.0, 0.0, 0.0, 0.0, 0.0, 0.0, 0.0, 0.0, 0.0, 0.0, 0.0, 0.0]
---
header: 
  seq: 3512
  stamp: 
    secs: 1536681211
    nsecs: 482896896
  frame_id: "map"
child_frame_id: "base_link"
pose: 
  pose: 
    position: 
      x: -0.0377480338931
      y: -2.20360171083e-10
      z: 0.044
    orientation: 
      x: 0.00710717992973
      y: -0.0165559389932
      z: -0.00946871098646
      w: -0.999792873272
  covariance: [1.0, 0.0, 0.0, 0.0, 0.0, 0.0, 0.0, 1.0, 0.0, 0.0, 0.0, 0.0, 0.0, 0.0, 1.0, 0.0, 0.0, 0.0, 0.0, 0.0, 0.0, 99999.0, 0.0, 0.0, 0.0, 0.0, 0.0, 0.0, 99999.0, 0.0, 0.0, 0.0, 0.0, 0.0, 0.0, 99999.0]
twist: 
  twist: 
    linear: 
      x: -0.05
      y: -0.01
      z: -0.01
    angular: 
      x: 0.0
      y: 0.0
      z: 0.0
  covariance: [-1.0, 0.0, 0.0, 0.0, 0.0, 0.0, 0.0, 0.0, 0.0, 0.0, 0.0, 0.0, 0.0, 0.0, 0.0, 0.0, 0.0, 0.0, 0.0, 0.0, 0.0, 0.0, 0.0, 0.0, 0.0, 0.0, 0.0, 0.0, 0.0, 0.0, 0.0, 0.0, 0.0, 0.0, 0.0, 0.0]
---
header: 
  seq: 3513
  stamp: 
    secs: 1536681211
    nsecs: 520896896
  frame_id: "map"
child_frame_id: "base_link"
pose: 
  pose: 
    position: 
      x: -0.0377480338956
      y: 7.05676038437e-11
      z: 0.042
    orientation: 
      x: 0.00718582035142
      y: -0.0165855711912
      z: -0.00948620192859
      w: -0.999791651014
  covariance: [1.0, 0.0, 0.0, 0.0, 0.0, 0.0, 0.0, 1.0, 0.0, 0.0, 0.0, 0.0, 0.0, 0.0, 1.0, 0.0, 0.0, 0.0, 0.0, 0.0, 0.0, 99999.0, 0.0, 0.0, 0.0, 0.0, 0.0, 0.0, 99999.0, 0.0, 0.0, 0.0, 0.0, 0.0, 0.0, 99999.0]
twist: 
  twist: 
    linear: 
      x: -0.05
      y: -0.01
      z: -0.01
    angular: 
      x: 0.0
      y: 0.0
      z: 0.0
  covariance: [-1.0, 0.0, 0.0, 0.0, 0.0, 0.0, 0.0, 0.0, 0.0, 0.0, 0.0, 0.0, 0.0, 0.0, 0.0, 0.0, 0.0, 0.0, 0.0, 0.0, 0.0, 0.0, 0.0, 0.0, 0.0, 0.0, 0.0, 0.0, 0.0, 0.0, 0.0, 0.0, 0.0, 0.0, 0.0, 0.0]
---
header: 
  seq: 3514
  stamp: 
    secs: 1536681211
    nsecs: 558285184
  frame_id: "map"
child_frame_id: "base_link"
pose: 
  pose: 
    position: 
      x: -0.0377480339214
      y: -3.29146120082e-10
      z: 0.04
    orientation: 
      x: 0.0071657587808
      y: -0.0165886844603
      z: -0.00954082424426
      w: -0.999791229545
  covariance: [1.0, 0.0, 0.0, 0.0, 0.0, 0.0, 0.0, 1.0, 0.0, 0.0, 0.0, 0.0, 0.0, 0.0, 1.0, 0.0, 0.0, 0.0, 0.0, 0.0, 0.0, 99999.0, 0.0, 0.0, 0.0, 0.0, 0.0, 0.0, 99999.0, 0.0, 0.0, 0.0, 0.0, 0.0, 0.0, 99999.0]
twist: 
  twist: 
    linear: 
      x: -0.05
      y: -0.01
      z: -0.01
    angular: 
      x: 0.0
      y: 0.0
      z: 0.0
  covariance: [-1.0, 0.0, 0.0, 0.0, 0.0, 0.0, 0.0, 0.0, 0.0, 0.0, 0.0, 0.0, 0.0, 0.0, 0.0, 0.0, 0.0, 0.0, 0.0, 0.0, 0.0, 0.0, 0.0, 0.0, 0.0, 0.0, 0.0, 0.0, 0.0, 0.0, 0.0, 0.0, 0.0, 0.0, 0.0, 0.0]
---
header: 
  seq: 3515
  stamp: 
    secs: 1536681211
    nsecs: 595285184
  frame_id: "map"
child_frame_id: "base_link"
pose: 
  pose: 
    position: 
      x: -0.0377480338651
      y: -5.05257318623e-10
      z: 0.039
    orientation: 
      x: 0.00706249373359
      y: -0.0165492560836
      z: -0.00963228290553
      w: -0.999791735307
  covariance: [1.0, 0.0, 0.0, 0.0, 0.0, 0.0, 0.0, 1.0, 0.0, 0.0, 0.0, 0.0, 0.0, 0.0, 1.0, 0.0, 0.0, 0.0, 0.0, 0.0, 0.0, 99999.0, 0.0, 0.0, 0.0, 0.0, 0.0, 0.0, 99999.0, 0.0, 0.0, 0.0, 0.0, 0.0, 0.0, 99999.0]
twist: 
  twist: 
    linear: 
      x: -0.05
      y: -0.01
      z: -0.01
    angular: 
      x: 0.0
      y: 0.0
      z: 0.0
  covariance: [-1.0, 0.0, 0.0, 0.0, 0.0, 0.0, 0.0, 0.0, 0.0, 0.0, 0.0, 0.0, 0.0, 0.0, 0.0, 0.0, 0.0, 0.0, 0.0, 0.0, 0.0, 0.0, 0.0, 0.0, 0.0, 0.0, 0.0, 0.0, 0.0, 0.0, 0.0, 0.0, 0.0, 0.0, 0.0, 0.0]
---
header: 
  seq: 3516
  stamp: 
    secs: 1536681211
    nsecs: 634673472
  frame_id: "map"
child_frame_id: "base_link"
pose: 
  pose: 
    position: 
      x: -0.0377480339828
      y: -2.01596257049e-10
      z: 0.037
    orientation: 
      x: 0.00695198930661
      y: -0.0166437473423
      z: -0.00956619664706
      w: -0.99979156672
  covariance: [1.0, 0.0, 0.0, 0.0, 0.0, 0.0, 0.0, 1.0, 0.0, 0.0, 0.0, 0.0, 0.0, 0.0, 1.0, 0.0, 0.0, 0.0, 0.0, 0.0, 0.0, 99999.0, 0.0, 0.0, 0.0, 0.0, 0.0, 0.0, 99999.0, 0.0, 0.0, 0.0, 0.0, 0.0, 0.0, 99999.0]
twist: 
  twist: 
    linear: 
      x: -0.05
      y: -0.01
      z: 0.0
    angular: 
      x: 0.0
      y: 0.0
      z: 0.0
  covariance: [-1.0, 0.0, 0.0, 0.0, 0.0, 0.0, 0.0, 0.0, 0.0, 0.0, 0.0, 0.0, 0.0, 0.0, 0.0, 0.0, 0.0, 0.0, 0.0, 0.0, 0.0, 0.0, 0.0, 0.0, 0.0, 0.0, 0.0, 0.0, 0.0, 0.0, 0.0, 0.0, 0.0, 0.0, 0.0, 0.0]
---
header: 
  seq: 3517
  stamp: 
    secs: 1536681211
    nsecs: 680673472
  frame_id: "map"
child_frame_id: "base_link"
pose: 
  pose: 
    position: 
      x: -0.0377480338702
      y: 7.65982346995e-11
      z: 0.035
    orientation: 
      x: 0.00699004725227
      y: -0.0166014114915
      z: -0.00956392071724
      w: -0.999792072482
  covariance: [1.0, 0.0, 0.0, 0.0, 0.0, 0.0, 0.0, 1.0, 0.0, 0.0, 0.0, 0.0, 0.0, 0.0, 1.0, 0.0, 0.0, 0.0, 0.0, 0.0, 0.0, 99999.0, 0.0, 0.0, 0.0, 0.0, 0.0, 0.0, 99999.0, 0.0, 0.0, 0.0, 0.0, 0.0, 0.0, 99999.0]
twist: 
  twist: 
    linear: 
      x: -0.05
      y: -0.01
      z: 0.0
    angular: 
      x: 0.0
      y: 0.0
      z: 0.0
  covariance: [-1.0, 0.0, 0.0, 0.0, 0.0, 0.0, 0.0, 0.0, 0.0, 0.0, 0.0, 0.0, 0.0, 0.0, 0.0, 0.0, 0.0, 0.0, 0.0, 0.0, 0.0, 0.0, 0.0, 0.0, 0.0, 0.0, 0.0, 0.0, 0.0, 0.0, 0.0, 0.0, 0.0, 0.0, 0.0, 0.0]
---
header: 
  seq: 3518
  stamp: 
    secs: 1536681211
    nsecs: 714673472
  frame_id: "map"
child_frame_id: "base_link"
pose: 
  pose: 
    position: 
      x: -0.0377480339523
      y: -1.47004294154e-10
      z: 0.034
    orientation: 
      x: 0.0070062612766
      y: -0.0165640766277
      z: -0.00965626446233
      w: -0.99979169316
  covariance: [1.0, 0.0, 0.0, 0.0, 0.0, 0.0, 0.0, 1.0, 0.0, 0.0, 0.0, 0.0, 0.0, 0.0, 1.0, 0.0, 0.0, 0.0, 0.0, 0.0, 0.0, 99999.0, 0.0, 0.0, 0.0, 0.0, 0.0, 0.0, 99999.0, 0.0, 0.0, 0.0, 0.0, 0.0, 0.0, 99999.0]
twist: 
  twist: 
    linear: 
      x: -0.05
      y: -0.01
      z: 0.0
    angular: 
      x: 0.0
      y: 0.0
      z: 0.0
  covariance: [-1.0, 0.0, 0.0, 0.0, 0.0, 0.0, 0.0, 0.0, 0.0, 0.0, 0.0, 0.0, 0.0, 0.0, 0.0, 0.0, 0.0, 0.0, 0.0, 0.0, 0.0, 0.0, 0.0, 0.0, 0.0, 0.0, 0.0, 0.0, 0.0, 0.0, 0.0, 0.0, 0.0, 0.0, 0.0, 0.0]
---
header: 
  seq: 3519
  stamp: 
    secs: 1536681211
    nsecs: 756066112
  frame_id: "map"
child_frame_id: "base_link"
pose: 
  pose: 
    position: 
      x: -0.037748033896
      y: -3.23115489226e-10
      z: 0.033
    orientation: 
      x: 0.00695691587807
      y: -0.0164777855652
      z: -0.00967927664162
      w: -0.999793210447
  covariance: [1.0, 0.0, 0.0, 0.0, 0.0, 0.0, 0.0, 1.0, 0.0, 0.0, 0.0, 0.0, 0.0, 0.0, 1.0, 0.0, 0.0, 0.0, 0.0, 0.0, 0.0, 99999.0, 0.0, 0.0, 0.0, 0.0, 0.0, 0.0, 99999.0, 0.0, 0.0, 0.0, 0.0, 0.0, 0.0, 99999.0]
twist: 
  twist: 
    linear: 
      x: -0.05
      y: -0.01
      z: 0.0
    angular: 
      x: 0.0
      y: 0.0
      z: 0.0
  covariance: [-1.0, 0.0, 0.0, 0.0, 0.0, 0.0, 0.0, 0.0, 0.0, 0.0, 0.0, 0.0, 0.0, 0.0, 0.0, 0.0, 0.0, 0.0, 0.0, 0.0, 0.0, 0.0, 0.0, 0.0, 0.0, 0.0, 0.0, 0.0, 0.0, 0.0, 0.0, 0.0, 0.0, 0.0, 0.0, 0.0]
---
header: 
  seq: 3520
  stamp: 
    secs: 1536681211
    nsecs: 796066112
  frame_id: "map"
child_frame_id: "base_link"
pose: 
  pose: 
    position: 
      x: -0.0377480338986
      y: -6.6260460313e-10
      z: 0.031
    orientation: 
      x: 0.0069228194069
      y: -0.0165206196049
      z: -0.00966675902761
      w: -0.999792831125
  covariance: [1.0, 0.0, 0.0, 0.0, 0.0, 0.0, 0.0, 1.0, 0.0, 0.0, 0.0, 0.0, 0.0, 0.0, 1.0, 0.0, 0.0, 0.0, 0.0, 0.0, 0.0, 99999.0, 0.0, 0.0, 0.0, 0.0, 0.0, 0.0, 99999.0, 0.0, 0.0, 0.0, 0.0, 0.0, 0.0, 99999.0]
twist: 
  twist: 
    linear: 
      x: -0.05
      y: -0.01
      z: 0.0
    angular: 
      x: 0.0
      y: 0.0
      z: 0.0
  covariance: [-1.0, 0.0, 0.0, 0.0, 0.0, 0.0, 0.0, 0.0, 0.0, 0.0, 0.0, 0.0, 0.0, 0.0, 0.0, 0.0, 0.0, 0.0, 0.0, 0.0, 0.0, 0.0, 0.0, 0.0, 0.0, 0.0, 0.0, 0.0, 0.0, 0.0, 0.0, 0.0, 0.0, 0.0, 0.0, 0.0]
---
header: 
  seq: 3521
  stamp: 
    secs: 1536681211
    nsecs: 830066112
  frame_id: "map"
child_frame_id: "base_link"
pose: 
  pose: 
    position: 
      x: -0.045297640567
      y: -5.10686402888e-10
      z: 0.03
    orientation: 
      x: 0.00696595176727
      y: -0.0165547318811
      z: -0.00965643304972
      w: -0.999792114629
  covariance: [1.0, 0.0, 0.0, 0.0, 0.0, 0.0, 0.0, 1.0, 0.0, 0.0, 0.0, 0.0, 0.0, 0.0, 1.0, 0.0, 0.0, 0.0, 0.0, 0.0, 0.0, 99999.0, 0.0, 0.0, 0.0, 0.0, 0.0, 0.0, 99999.0, 0.0, 0.0, 0.0, 0.0, 0.0, 0.0, 99999.0]
twist: 
  twist: 
    linear: 
      x: -0.05
      y: -0.01
      z: 0.0
    angular: 
      x: 0.0
      y: 0.0
      z: 0.0
  covariance: [-1.0, 0.0, 0.0, 0.0, 0.0, 0.0, 0.0, 0.0, 0.0, 0.0, 0.0, 0.0, 0.0, 0.0, 0.0, 0.0, 0.0, 0.0, 0.0, 0.0, 0.0, 0.0, 0.0, 0.0, 0.0, 0.0, 0.0, 0.0, 0.0, 0.0, 0.0, 0.0, 0.0, 0.0, 0.0, 0.0]
---
header: 
  seq: 3522
  stamp: 
    secs: 1536681211
    nsecs: 868457216
  frame_id: "map"
child_frame_id: "base_link"
pose: 
  pose: 
    position: 
      x: -0.0452976406259
      y: -6.74064318251e-10
      z: 0.029
    orientation: 
      x: 0.00704828991637
      y: -0.0165485504531
      z: -0.00965390423881
      w: -0.999791608867
  covariance: [1.0, 0.0, 0.0, 0.0, 0.0, 0.0, 0.0, 1.0, 0.0, 0.0, 0.0, 0.0, 0.0, 0.0, 1.0, 0.0, 0.0, 0.0, 0.0, 0.0, 0.0, 99999.0, 0.0, 0.0, 0.0, 0.0, 0.0, 0.0, 99999.0, 0.0, 0.0, 0.0, 0.0, 0.0, 0.0, 99999.0]
twist: 
  twist: 
    linear: 
      x: -0.05
      y: -0.01
      z: 0.0
    angular: 
      x: 0.0
      y: 0.0
      z: 0.0
  covariance: [-1.0, 0.0, 0.0, 0.0, 0.0, 0.0, 0.0, 0.0, 0.0, 0.0, 0.0, 0.0, 0.0, 0.0, 0.0, 0.0, 0.0, 0.0, 0.0, 0.0, 0.0, 0.0, 0.0, 0.0, 0.0, 0.0, 0.0, 0.0, 0.0, 0.0, 0.0, 0.0, 0.0, 0.0, 0.0, 0.0]
---
header: 
  seq: 3523
  stamp: 
    secs: 1536681211
    nsecs: 913457216
  frame_id: "map"
child_frame_id: "base_link"
pose: 
  pose: 
    position: 
      x: -0.0452976405133
      y: 2.34547058858e-10
      z: 0.027
    orientation: 
      x: 0.00697544139363
      y: -0.0165118961951
      z: -0.00971333129521
      w: -0.999792198923
  covariance: [1.0, 0.0, 0.0, 0.0, 0.0, 0.0, 0.0, 1.0, 0.0, 0.0, 0.0, 0.0, 0.0, 0.0, 1.0, 0.0, 0.0, 0.0, 0.0, 0.0, 0.0, 99999.0, 0.0, 0.0, 0.0, 0.0, 0.0, 0.0, 99999.0, 0.0, 0.0, 0.0, 0.0, 0.0, 0.0, 99999.0]
twist: 
  twist: 
    linear: 
      x: -0.05
      y: -0.01
      z: 0.0
    angular: 
      x: 0.0
      y: 0.0
      z: 0.0
  covariance: [-1.0, 0.0, 0.0, 0.0, 0.0, 0.0, 0.0, 0.0, 0.0, 0.0, 0.0, 0.0, 0.0, 0.0, 0.0, 0.0, 0.0, 0.0, 0.0, 0.0, 0.0, 0.0, 0.0, 0.0, 0.0, 0.0, 0.0, 0.0, 0.0, 0.0, 0.0, 0.0, 0.0, 0.0, 0.0, 0.0]
---
header: 
  seq: 3524
  stamp: 
    secs: 1536681211
    nsecs: 951845504
  frame_id: "map"
child_frame_id: "base_link"
pose: 
  pose: 
    position: 
      x: -0.0377480338474
      y: 3.73556633543e-10
      z: 0.026
    orientation: 
      x: 0.00704604856014
      y: -0.0166024533089
      z: -0.0097266075525
      w: -0.999790049433
  covariance: [1.0, 0.0, 0.0, 0.0, 0.0, 0.0, 0.0, 1.0, 0.0, 0.0, 0.0, 0.0, 0.0, 0.0, 1.0, 0.0, 0.0, 0.0, 0.0, 0.0, 0.0, 99999.0, 0.0, 0.0, 0.0, 0.0, 0.0, 0.0, 99999.0, 0.0, 0.0, 0.0, 0.0, 0.0, 0.0, 99999.0]
twist: 
  twist: 
    linear: 
      x: -0.05
      y: -0.01
      z: 0.0
    angular: 
      x: 0.0
      y: 0.0
      z: 0.0
  covariance: [-1.0, 0.0, 0.0, 0.0, 0.0, 0.0, 0.0, 0.0, 0.0, 0.0, 0.0, 0.0, 0.0, 0.0, 0.0, 0.0, 0.0, 0.0, 0.0, 0.0, 0.0, 0.0, 0.0, 0.0, 0.0, 0.0, 0.0, 0.0, 0.0, 0.0, 0.0, 0.0, 0.0, 0.0, 0.0, 0.0]
---
header: 
  seq: 3525
  stamp: 
    secs: 1536681211
    nsecs: 986845504
  frame_id: "map"
child_frame_id: "base_link"
pose: 
  pose: 
    position: 
      x: -0.0377480338732
      y: -6.56573979213e-10
      z: 0.024
    orientation: 
      x: 0.00703780457072
      y: -0.0166475389123
      z: -0.00973014788777
      w: -0.99978929079
  covariance: [1.0, 0.0, 0.0, 0.0, 0.0, 0.0, 0.0, 1.0, 0.0, 0.0, 0.0, 0.0, 0.0, 0.0, 1.0, 0.0, 0.0, 0.0, 0.0, 0.0, 0.0, 99999.0, 0.0, 0.0, 0.0, 0.0, 0.0, 0.0, 99999.0, 0.0, 0.0, 0.0, 0.0, 0.0, 0.0, 99999.0]
twist: 
  twist: 
    linear: 
      x: -0.05
      y: -0.01
      z: 0.0
    angular: 
      x: 0.0
      y: 0.0
      z: 0.0
  covariance: [-1.0, 0.0, 0.0, 0.0, 0.0, 0.0, 0.0, 0.0, 0.0, 0.0, 0.0, 0.0, 0.0, 0.0, 0.0, 0.0, 0.0, 0.0, 0.0, 0.0, 0.0, 0.0, 0.0, 0.0, 0.0, 0.0, 0.0, 0.0, 0.0, 0.0, 0.0, 0.0, 0.0, 0.0, 0.0, 0.0]
---
header: 
  seq: 3526
  stamp: 
    secs: 1536681212
    nsecs:  26845504
  frame_id: "map"
child_frame_id: "base_link"
pose: 
  pose: 
    position: 
      x: -0.0377480338169
      y: -2.02268288924e-10
      z: 0.023
    orientation: 
      x: 0.00705895669104
      y: -0.0166517249505
      z: -0.00976976592537
      w: -0.999788785028
  covariance: [1.0, 0.0, 0.0, 0.0, 0.0, 0.0, 0.0, 1.0, 0.0, 0.0, 0.0, 0.0, 0.0, 0.0, 1.0, 0.0, 0.0, 0.0, 0.0, 0.0, 0.0, 99999.0, 0.0, 0.0, 0.0, 0.0, 0.0, 0.0, 99999.0, 0.0, 0.0, 0.0, 0.0, 0.0, 0.0, 99999.0]
twist: 
  twist: 
    linear: 
      x: -0.05
      y: -0.01
      z: 0.0
    angular: 
      x: 0.0
      y: 0.0
      z: 0.0
  covariance: [-1.0, 0.0, 0.0, 0.0, 0.0, 0.0, 0.0, 0.0, 0.0, 0.0, 0.0, 0.0, 0.0, 0.0, 0.0, 0.0, 0.0, 0.0, 0.0, 0.0, 0.0, 0.0, 0.0, 0.0, 0.0, 0.0, 0.0, 0.0, 0.0, 0.0, 0.0, 0.0, 0.0, 0.0, 0.0, 0.0]
---
header: 
  seq: 3527
  stamp: 
    secs: 1536681212
    nsecs:  63233024
  frame_id: "map"
child_frame_id: "base_link"
pose: 
  pose: 
    position: 
      x: -0.0377480338169
      y: -2.02268288924e-10
      z: 0.023
    orientation: 
      x: 0.0070237680238
      y: -0.0167248984649
      z: -0.00977811100138
      w: -0.99978768921
  covariance: [1.0, 0.0, 0.0, 0.0, 0.0, 0.0, 0.0, 1.0, 0.0, 0.0, 0.0, 0.0, 0.0, 0.0, 1.0, 0.0, 0.0, 0.0, 0.0, 0.0, 0.0, 99999.0, 0.0, 0.0, 0.0, 0.0, 0.0, 0.0, 99999.0, 0.0, 0.0, 0.0, 0.0, 0.0, 0.0, 99999.0]
twist: 
  twist: 
    linear: 
      x: -0.04
      y: -0.01
      z: 0.0
    angular: 
      x: 0.0
      y: 0.0
      z: 0.0
  covariance: [-1.0, 0.0, 0.0, 0.0, 0.0, 0.0, 0.0, 0.0, 0.0, 0.0, 0.0, 0.0, 0.0, 0.0, 0.0, 0.0, 0.0, 0.0, 0.0, 0.0, 0.0, 0.0, 0.0, 0.0, 0.0, 0.0, 0.0, 0.0, 0.0, 0.0, 0.0, 0.0, 0.0, 0.0, 0.0, 0.0]
---
header: 
  seq: 3528
  stamp: 
    secs: 1536681212
    nsecs: 104233024
  frame_id: "map"
child_frame_id: "base_link"
pose: 
  pose: 
    position: 
      x: -0.0377480337606
      y: 2.52037403101e-10
      z: 0.022
    orientation: 
      x: 0.0070293468836
      y: -0.0167751905212
      z: -0.00981777118582
      w: -0.999786382657
  covariance: [1.0, 0.0, 0.0, 0.0, 0.0, 0.0, 0.0, 1.0, 0.0, 0.0, 0.0, 0.0, 0.0, 0.0, 1.0, 0.0, 0.0, 0.0, 0.0, 0.0, 0.0, 99999.0, 0.0, 0.0, 0.0, 0.0, 0.0, 0.0, 99999.0, 0.0, 0.0, 0.0, 0.0, 0.0, 0.0, 99999.0]
twist: 
  twist: 
    linear: 
      x: -0.04
      y: -0.01
      z: 0.0
    angular: 
      x: 0.0
      y: 0.0
      z: 0.0
  covariance: [-1.0, 0.0, 0.0, 0.0, 0.0, 0.0, 0.0, 0.0, 0.0, 0.0, 0.0, 0.0, 0.0, 0.0, 0.0, 0.0, 0.0, 0.0, 0.0, 0.0, 0.0, 0.0, 0.0, 0.0, 0.0, 0.0, 0.0, 0.0, 0.0, 0.0, 0.0, 0.0, 0.0, 0.0, 0.0, 0.0]
---
header: 
  seq: 3529
  stamp: 
    secs: 1536681212
    nsecs: 146623360
  frame_id: "map"
child_frame_id: "base_link"
pose: 
  pose: 
    position: 
      x: -0.0377480338427
      y: -6.01982012849e-10
      z: 0.021
    orientation: 
      x: 0.0070070018099
      y: -0.0167886794883
      z: -0.00985873792258
      w: -0.999785961189
  covariance: [1.0, 0.0, 0.0, 0.0, 0.0, 0.0, 0.0, 1.0, 0.0, 0.0, 0.0, 0.0, 0.0, 0.0, 1.0, 0.0, 0.0, 0.0, 0.0, 0.0, 0.0, 99999.0, 0.0, 0.0, 0.0, 0.0, 0.0, 0.0, 99999.0, 0.0, 0.0, 0.0, 0.0, 0.0, 0.0, 99999.0]
twist: 
  twist: 
    linear: 
      x: -0.04
      y: -0.01
      z: 0.0
    angular: 
      x: 0.0
      y: 0.0
      z: 0.0
  covariance: [-1.0, 0.0, 0.0, 0.0, 0.0, 0.0, 0.0, 0.0, 0.0, 0.0, 0.0, 0.0, 0.0, 0.0, 0.0, 0.0, 0.0, 0.0, 0.0, 0.0, 0.0, 0.0, 0.0, 0.0, 0.0, 0.0, 0.0, 0.0, 0.0, 0.0, 0.0, 0.0, 0.0, 0.0, 0.0, 0.0]
---
header: 
  seq: 3530
  stamp: 
    secs: 1536681212
    nsecs: 181623360
  frame_id: "map"
child_frame_id: "base_link"
pose: 
  pose: 
    position: 
      x: -0.0377480337632
      y: -8.74517108035e-11
      z: 0.02
    orientation: 
      x: 0.00705032745308
      y: -0.0167362659309
      z: -0.0098311317368
      w: -0.999786761979
  covariance: [1.0, 0.0, 0.0, 0.0, 0.0, 0.0, 0.0, 1.0, 0.0, 0.0, 0.0, 0.0, 0.0, 0.0, 1.0, 0.0, 0.0, 0.0, 0.0, 0.0, 0.0, 99999.0, 0.0, 0.0, 0.0, 0.0, 0.0, 0.0, 99999.0, 0.0, 0.0, 0.0, 0.0, 0.0, 0.0, 99999.0]
twist: 
  twist: 
    linear: 
      x: -0.04
      y: -0.01
      z: 0.0
